[
  {
    "id": 1,
    "name": "Marina Beach",
    "imageName": "beach_marina",
    "latitude": 13.0490,
    "longitude": 80.2824,
    "polygonCoordinates": [
      [
        80.2898283,
        13.0664749
      ],
      [
        80.2889056,
        13.0662868
      ],
      [
        80.2885408,
        13.0661405
      ],
      [
        80.2883477,
        13.0654301
      ],
      [
        80.2881117,
        13.0646569
      ],
      [
        80.2878113,
        13.0646778
      ],
      [
        80.2871461,
        13.0640927
      ],
      [
        80.2863092,
        13.0641763
      ],
      [
        80.2860732,
        13.0634031
      ],
      [
        80.2841849,
        13.0639464
      ],
      [
        80.2830691,
        13.0601015
      ],
      [
        80.2834339,
        13.0599552
      ],
      [
        80.2833481,
        13.058576
      ],
      [
        80.2826185,
        13.0586387
      ],
      [
        80.2804728,
        13.0435424
      ],
      [
        80.2802796,
        13.0427692
      ],
      [
        80.2796445,
        13.0392123
      ],
      [
        80.2804599,
        13.038857
      ],
      [
        80.2781854,
        13.0226117
      ],
      [
        80.2780008,
        13.0210901
      ],
      [
        80.2782583,
        13.0207975
      ],
      [
        80.2785587,
        13.0206721
      ],
      [
        80.2795029,
        13.0267539
      ],
      [
        80.2806702,
        13.034403
      ],
      [
        80.282258,
        13.0430884
      ],
      [
        80.2846742,
        13.0529395
      ],
      [
        80.288146,
        13.0628822
      ],
      [
        80.2885323,
        13.0640315
      ],
      [
        80.289176,
        13.0652226
      ],
      [
        80.2897768,
        13.0664137
      ],
      [
        80.2898412,
        13.066539
      ]
    ]
  },
  {
    "id": 2,
    "name": "Payyambalam Beach",
    "imageName": "beach_payyambalam",
    "latitude": 11.871677,
    "longitude": 75.3505,
    "polygonCoordinates": [
      [11.8717, 75.3505],
      [11.8720, 75.3510],
      [11.8725, 75.3500],
      [11.8720, 75.3495]
    ]
  },
  {
    "id": 3,
    "name": "Marie Beach",
    "imageName": "beach_marie",
    "latitude": 13.05418,
    "longitude": 80.28368,
    "polygonCoordinates": [
      [13.05418, 80.28368],
      [13.05450, 80.28400],
      [13.05500, 80.28350],
      [13.05450, 80.28300]
    ]
  },
  {
    "id": 4,
    "name": "Shrivardhan Beach",
    "imageName": "beach_shrivardhan",
    "latitude": 18.04592,
    "longitude": 73.01552,
    "polygonCoordinates": [
      [18.04592, 73.01552],
      [18.04620, 73.01580],
      [18.04650, 73.01530],
      [18.04620, 73.01500]
    ]
  },
  {
    "id": 5,
    "name": "Kovalam Beach",
    "imageName": "beach_kovalam",
    "latitude": 8.4005253,
    "longitude": 76.9592239,
    "polygonCoordinates": [
      [8.40053, 76.95922],
      [8.40080, 76.95950],
      [8.40100, 76.95900],
      [8.40080, 76.95870]
    ]
  },
  {
    "id": 6,
    "name": "Varkala Beach",
    "imageName": "beach_varkala",
    "latitude": 8.7347127,
    "longitude": 76.7007349,
    "polygonCoordinates": [
      [8.73471, 76.70073],
      [8.73500, 76.70100],
      [8.73530, 76.70050],
      [8.73500, 76.70020]
    ]
  },
  {
    "id": 7,
    "name": "Marari Beach",
    "imageName": "beach_marari",
    "latitude": 9.600748,
    "longitude": 76.2570589,
    "polygonCoordinates": [
      [9.60075, 76.25706],
      [9.60100, 76.25730],
      [9.60130, 76.25700],
      [9.60100, 76.25670]
    ]
  },
  {
    "id": 8,
    "name": "Alappuzha Beach",
    "imageName": "beach_alappuzha",
    "latitude": 9.4877411,
    "longitude": 76.3087284,
    "polygonCoordinates": [
      [9.48774, 76.30873],
      [9.48800, 76.30900],
      [9.48830, 76.30850],
      [9.48800, 76.30820]
    ]
  },
  {
    "id": 9,
    "name": "Cherai Beach",
    "imageName": "beach_cherai",
    "latitude": 10.1416989,
    "longitude": 76.1677569,
    "polygonCoordinates": [
      [10.14170, 76.16776],
      [10.14200, 76.16800],
      [10.14230, 76.16750],
      [10.14200, 76.16720]
    ]
  },
  {
    "id": 10,
    "name": "Kozhikode Beach",
    "imageName": "beach_kozhikode",
    "latitude": 11.2606843,
    "longitude": 75.7594388,
    "polygonCoordinates": [
      [11.26068, 75.75944],
      [11.26100, 75.75970],
      [11.26130, 75.75920],
      [11.26100, 75.75890]
    ]
  }
]
